$GNGGA,110427.24,5215.812337,N,00802.601900,E,1,04,4.0,89.5,M,46.5,M,,*4D
$GNRMC,110428.24,A,5215.813331,N,00802.602558,E,0.0,,020423,,,A,V*15
$GNGGA,110428.24,5215.813331,N,00802.602558,E,1,04,4.0,85.5,M,46.5,M,,*4B
$GNRMC,110429.24,A,5215.814011,N,00802.601099,E,0.0,,020423,,,A,V*19
$GNGGA,110429.24,5215.814011,N,00802.601099,E,1,04,4.0,84.5,M,46.5,M,,*46
$GNRMC,110430.24,V,,,,,,,020423,,,N,V*1F
$GNGGA,110437.24,5215.809926,N,00802.596006,E,1,04,4.0,81.5,M,46.5,M,,*46
$GNRMC,110438.24,A,5215.809726,N,00802.595713,E,0.0,,020423,,,A,V*1D
$GNGGA,110438.24,5215.809726,N,00802.595713,E,1,04,4.0,79.5,M,46.5,M,,*40
$GNRMC,110439.24,A,5215.809412,N,00802.594404,E,0.0,,020423,,,A,V*1C
$GNGGA,110439.24,5215.809412,N,00802.594404,E,1,04,4.0,78.5,M,46.5,M,,*40
$GNRMC,110440.24,A,5215.809640,N,00802.592694,E,0.0,,020423,,,A,V*1A
$GNGGA,110440.24,5215.809640,N,00802.592694,E,1,04,4.0,78.5,M,46.5,M,,*46
$GNRMC,110441.24,A,5215.809698,N,00802.592058,E,0.0,,020423,,,A,V*18
$GNGGA,110441.24,5215.809698,N,00802.592058,E,1,04,4.0,77.5,M,46.5,M,,*4B
$GNRMC,110442.24,A,5215.809354,N,00802.591536,E,0.0,,020423,,,A,V*10
$GNGGA,110442.24,5215.809354,N,00802.591536,E,1,04,4.0,78.5,M,46.5,M,,*4C
$GNRMC,110443.24,A,5215.808939,N,00802.590963,E,0.0,,020423,,,A,V*1C
$GNGGA,110443.24,5215.808939,N,00802.590963,E,1,04,4.0,78.5,M,46.5,M,,*40
$GNRMC,110444.24,A,5215.808782,N,00802.590298,E,0.0,,020423,,,A,V*1A
$GNGGA,110444.24,5215.808782,N,00802.590298,E,1,04,4.0,76.5,M,46.5,M,,*48
$GNRMC,110445.24,A,5215.808088,N,00802.588510,E,0.0,,020423,,,A,V*18
$GNGGA,110445.24,5215.808088,N,00802.588510,E,1,04,4.0,77.5,M,46.5,M,,*4B
$GNRMC,110446.24,A,5215.808045,N,00802.587280,E,0.0,,020423,,,A,V*1B
$GNGGA,110446.24,5215.808045,N,00802.587280,E,1,04,4.0,76.5,M,46.5,M,,*49
$GNRMC,110447.24,A,5215.808246,N,00802.586464,E,0.0,,020423,,,A,V*16
$GNGGA,110447.24,5215.808246,N,00802.586464,E,1,04,4.0,75.5,M,46.5,M,,*47
$GNRMC,110448.24,A,5215.808582,N,00802.585849,E,0.0,,020423,,,A,V*16
$GNGGA,110448.24,5215.808582,N,00802.585849,E,1,04,4.0,74.5,M,46.5,M,,*46
$GNRMC,110449.24,A,5215.808897,N,00802.585320,E,0.0,,020423,,,A,V*1A
$GNGGA,110449.24,5215.808897,N,00802.585320,E,1,04,4.0,72.5,M,46.5,M,,*4C
$GNRMC,110450.24,A,5215.809683,N,00802.585492,E,0.0,,020423,,,A,V*16
$GNGGA,110450.24,5215.809683,N,00802.585492,E,1,04,4.0,69.5,M,46.5,M,,*4A
$GNRMC,110451.24,A,5215.809168,N,00802.584319,E,0.0,,020423,,,A,V*10
$GNGGA,110451.24,5215.809168,N,00802.584319,E,1,04,4.0,69.5,M,46.5,M,,*4C
$GNRMC,110452.24,A,5215.808789,N,00802.582988,E,0.0,,020423,,,A,V*1F
$GNGGA,110452.24,5215.808789,N,00802.582988,E,1,04,4.0,69.5,M,46.5,M,,*43
$GNRMC,110453.24,A,5215.808331,N,00802.581708,E,0.0,,020423,,,A,V*1C
$GNGGA,110453.24,5215.808331,N,00802.581708,E,1,04,4.0,69.5,M,46.5,M,,*40
$GNRMC,110454.24,A,5215.807960,N,00802.580063,E,0.0,,020423,,,A,V*11
$GNGGA,110454.24,5215.807960,N,00802.580063,E,1,04,4.0,69.5,M,46.5,M,,*4D
$GNRMC,110455.24,A,5215.807802,N,00802.578382,E,0.0,,020423,,,A,V*1E
$GNGGA,110455.24,5215.807802,N,00802.578382,E,1,04,4.0,69.5,M,46.5,M,,*42
$GNRMC,110456.24,A,5215.807495,N,00802.576465,E,0.0,,020423,,,A,V*1F
$GNGGA,110456.24,5215.807495,N,00802.576465,E,1,04,4.0,69.5,M,46.5,M,,*43
$GNRMC,110457.24,A,5215.807173,N,00802.575042,E,0.0,,020423,,,A,V*11
$GNGGA,110457.24,5215.807173,N,00802.575042,E,1,04,4.0,69.5,M,46.5,M,,*4D
$GNRMC,110458.24,A,5215.807030,N,00802.573897,E,0.0,,020423,,,A,V*1E
$GNGGA,110458.24,5215.807030,N,00802.573897,E,1,04,4.0,68.5,M,46.5,M,,*43
$GNRMC,110459.24,A,5215.807173,N,00802.573561,E,0.0,,020423,,,A,V*1D
$GNGGA,110459.24,5215.807173,N,00802.573561,E,1,04,4.0,67.5,M,46.5,M,,*4F
$GNRMC,110500.24,A,5215.806987,N,00802.573075,E,0.0,,020423,,,A,V*12
$GNGGA,110500.24,5215.806987,N,00802.573075,E,1,04,4.0,68.5,M,46.5,M,,*4F
$GNRMC,110501.24,A,5215.806772,N,00802.572739,E,0.0,,020423,,,A,V*19
$GNGGA,110501.24,5215.806772,N,00802.572739,E,1,04,4.0,68.5,M,46.5,M,,*44
$GNRMC,110502.24,V,,,,,,,020423,,,N,V*1F
$GNGGA,110503.24,5215.806508,N,00802.571022,E,1,04,4.0,69.5,M,46.5,M,,*46
$GNRMC,110504.24,A,5215.806443,N,00802.569606,E,0.0,,020423,,,A,V*1A
$GNGGA,110504.24,5215.806443,N,00802.569606,E,1,04,4.0,69.5,M,46.5,M,,*46
$GNRMC,110505.24,A,5215.805678,N,00802.568275,E,0.0,,020423,,,A,V*13
$GNGGA,110505.24,5215.805678,N,00802.568275,E,1,04,4.0,69.5,M,46.5,M,,*4F
$GNRMC,110506.24,A,5215.804748,N,00802.566874,E,0.0,,020423,,,A,V*16
$GNGGA,110506.24,5215.804748,N,00802.566874,E,1,04,4.0,70.5,M,46.5,M,,*42
$GNRMC,110507.24,A,5215.804562,N,00802.565844,E,0.0,,020423,,,A,V*1D
$GNGGA,110507.24,5215.804562,N,00802.565844,E,1,04,4.0,70.5,M,46.5,M,,*49
$GNRMC,110508.24,A,5215.804233,N,00802.564642,E,0.0,,020423,,,A,V*18
$GNGGA,110508.24,5215.804233,N,00802.564642,E,1,04,4.0,70.5,M,46.5,M,,*4C
$GNRMC,110509.24,A,5215.803747,N,00802.563197,E,0.0,,020423,,,A,V*10
$GNGGA,110509.24,5215.803747,N,00802.563197,E,1,04,4.0,71.5,M,46.5,M,,*45
$GNRMC,110510.24,A,5215.803232,N,00802.561988,E,0.0,,020423,,,A,V*1B
$GNGGA,110510.24,5215.803232,N,00802.561988,E,1,04,4.0,71.5,M,46.5,M,,*4E
$GNRMC,110511.24,V,,,,,,,020423,,,N,V*1D
$GNGGA,110518.24,5215.802216,N,00802.556431,E,1,05,3.9,70.5,M,46.5,M,,*44
$GNRMC,110519.24,A,5215.810163,N,00802.542998,E,1.1,240.0,020423,,,A,V*3F
$GNGGA,110519.24,5215.810163,N,00802.542998,E,1,05,3.9,45.5,M,46.5,M,,*4A
$GNRMC,110520.23,A,5215.807273,N,00802.539136,E,1.8,239.8,020423,,,A,V*39
$GNGGA,110520.23,5215.807273,N,00802.539136,E,1,05,3.9,45.5,M,46.5,M,,*43
$GNRMC,110521.23,A,5215.805320,N,00802.537755,E,1.8,264.9,020423,,,A,V*39
$GNGGA,110521.23,5215.805320,N,00802.537755,E,1,05,3.9,46.5,M,46.5,M,,*49
$GNRMC,110522.23,A,5215.804376,N,00802.536025,E,2.0,254.6,020423,,,A,V*3E
$GNGGA,110522.23,5215.804376,N,00802.536025,E,1,05,3.9,47.5,M,46.5,M,,*48
$GNRMC,110523.23,A,5215.803432,N,00802.534172,E,2.4,231.8,020423,,,A,V*37
$GNGGA,110523.23,5215.803432,N,00802.534172,E,1,05,3.9,47.5,M,46.5,M,,*48
$GNRMC,110524.23,A,5215.802559,N,00802.532820,E,3.2,237.3,020423,,,A,V*3F
$GNGGA,110524.23,5215.802559,N,00802.532820,E,1,05,3.9,48.5,M,46.5,M,,*45
$GNRMC,110525.23,A,5215.801222,N,00802.531003,E,0.7,268.2,020423,,,A,V*31
$GNGGA,110525.23,5215.801222,N,00802.531003,E,1,05,3.9,51.5,M,46.5,M,,*4E
$GNRMC,110526.00,A,5215.799555,N,00802.529673,E,0.7,267.5,020423,,,A,V*3A
$GNGGA,110526.00,5215.799555,N,00802.529673,E,1,05,3.9,56.5,M,46.5,M,,*4A
$GNRMC,110527.00,A,5215.799691,N,00802.529730,E,0.8,289.3,020423,,,A,V*3F
$GNGGA,110527.00,5215.799691,N,00802.529730,E,1,05,3.9,59.5,M,46.5,M,,*49
$GNRMC,110528.00,A,5215.798525,N,00802.528536,E,1.7,326.9,020423,,,A,V*38
$GNGGA,110528.00,5215.798525,N,00802.528536,E,1,05,3.9,61.5,M,46.5,M,,*45
$GNRMC,110529.00,A,5215.797832,N,00802.527506,E,2.3,307.9,020423,,,A,V*35
$GNGGA,110529.00,5215.797832,N,00802.527506,E,1,05,3.9,63.5,M,46.5,M,,*4E
$GNRMC,110530.00,A,5215.797574,N,00802.526397,E,2.3,294.7,020423,,,A,V*38
$GNGGA,110530.00,5215.797574,N,00802.526397,E,1,04,4.8,63.5,M,46.5,M,,*41
$GNRMC,110531.00,A,5215.797424,N,00802.525575,E,2.1,264.0,020423,,,A,V*3E
$GNGGA,110531.00,5215.797424,N,00802.525575,E,1,05,3.9,60.5,M,46.5,M,,*49
$GNRMC,110532.00,A,5215.797331,N,00802.524895,E,2.0,287.5,020423,,,A,V*35
$GNGGA,110532.00,5215.797331,N,00802.524895,E,1,05,3.9,60.5,M,46.5,M,,*4B
$GNRMC,110533.00,A,5215.796995,N,00802.524387,E,1.7,266.6,020423,,,A,V*31
$GNGGA,110533.00,5215.796995,N,00802.524387,E,1,05,3.9,62.5,M,46.5,M,,*45
$GNRMC,110534.00,A,5215.796744,N,00802.523858,E,1.0,271.4,020423,,,A,V*39
$GNGGA,110534.00,5215.796744,N,00802.523858,E,1,04,4.8,63.5,M,46.5,M,,*48
$GNRMC,110535.00,A,5215.796558,N,00802.523157,E,1.4,282.6,020423,,,A,V*3B
$GNGGA,110535.00,5215.796558,N,00802.523157,E,1,05,3.9,63.5,M,46.5,M,,*47
$GNRMC,110536.00,A,5215.796523,N,00802.522435,E,1.4,266.0,020423,,,A,V*38
$GNGGA,110536.00,5215.796523,N,00802.522435,E,1,05,3.9,64.5,M,46.5,M,,*4F
$GNRMC,110537.00,A,5215.796544,N,00802.521548,E,1.5,264.0,020423,,,A,V*33
$GNGGA,110537.00,5215.796544,N,00802.521548,E,1,05,3.9,64.5,M,46.5,M,,*47
$GNRMC,110538.00,A,5215.796358,N,00802.520732,E,1.6,248.7,020423,,,A,V*33
$GNGGA,110538.00,5215.796358,N,00802.520732,E,1,04,51.0,64.5,M,46.5,M,,*72
$GNRMC,110539.00,A,5215.796308,N,00802.520089,E,1.4,268.3,020423,,,A,V*34
$GNGGA,110539.00,5215.796308,N,00802.520089,E,1,05,3.9,64.5,M,46.5,M,,*4E
$GNRMC,110540.00,A,5215.795843,N,00802.519173,E,1.2,263.5,020423,,,A,V*38
$GNGGA,110540.00,5215.795843,N,00802.519173,E,1,04,9.0,66.5,M,46.5,M,,*49
$GNRMC,110541.00,A,5215.795207,N,00802.518007,E,2.0,215.5,020423,,,A,V*30
$GNGGA,110541.00,5215.795207,N,00802.518007,E,1,05,3.9,67.5,M,46.5,M,,*42
$GNRMC,110542.00,A,5215.794355,N,00802.516276,E,2.9,212.7,020423,,,A,V*32
$GNGGA,110542.00,5215.794355,N,00802.516276,E,1,05,3.9,67.5,M,46.5,M,,*4C
$GNRMC,110543.00,A,5215.793640,N,00802.515025,E,3.1,249.0,020423,,,A,V*32
$GNGGA,110543.00,5215.793640,N,00802.515025,E,1,05,3.9,68.5,M,46.5,M,,*43
$GNRMC,110544.00,A,5215.793275,N,00802.513737,E,3.1,259.4,020423,,,A,V*30
$GNGGA,110544.00,5215.793275,N,00802.513737,E,1,05,3.9,68.5,M,46.5,M,,*44
$GNRMC,110545.00,A,5215.793182,N,00802.512421,E,3.0,256.0,020423,,,A,V*35
$GNGGA,110545.00,5215.793182,N,00802.512421,E,1,05,3.9,68.5,M,46.5,M,,*4B
$GNRMC,110546.00,A,5215.793404,N,00802.510569,E,3.1,248.1,020423,,,A,V*3D
$GNGGA,110546.00,5215.793404,N,00802.510569,E,1,05,3.9,67.5,M,46.5,M,,*43
$GNRMC,110547.00,A,5215.793647,N,00802.508916,E,3.1,251.9,020423,,,A,V*34
$GNGGA,110547.00,5215.793647,N,00802.508916,E,1,04,47.5,67.5,M,46.5,M,,*77
$GNRMC,110548.00,A,5215.793762,N,00802.507414,E,3.1,276.5,020423,,,A,V*34
$GNGGA,110548.00,5215.793762,N,00802.507414,E,1,05,3.9,67.5,M,46.5,M,,*43
$GNRMC,110549.00,A,5215.793583,N,00802.505869,E,3.1,245.5,020423,,,A,V*3C
$GNGGA,110549.00,5215.793583,N,00802.505869,E,1,05,3.9,67.5,M,46.5,M,,*4B
$GNRMC,110550.00,A,5215.793190,N,00802.504074,E,3.1,274.1,020423,,,A,V*31
$GNGGA,110550.00,5215.793190,N,00802.504074,E,1,05,3.9,68.5,M,46.5,M,,*4F
$GNRMC,110551.00,A,5215.792653,N,00802.502243,E,3.4,266.0,020423,,,A,V*3E
$GNGGA,110551.00,5215.792653,N,00802.502243,E,1,05,3.9,69.5,M,46.5,M,,*46
$GNRMC,110552.00,A,5215.791995,N,00802.500505,E,3.4,241.8,020423,,,A,V*31
$GNGGA,110552.00,5215.791995,N,00802.500505,E,1,05,3.9,70.5,M,46.5,M,,*4C
$GNRMC,110553.00,A,5215.791251,N,00802.499210,E,3.4,226.6,020423,,,A,V*3E
$GNGGA,110553.00,5215.791251,N,00802.499210,E,1,05,3.9,71.5,M,46.5,M,,*4D
$GNRMC,110554.00,A,5215.790550,N,00802.498195,E,3.3,242.4,020423,,,A,V*36
$GNGGA,110554.00,5215.790550,N,00802.498195,E,1,05,3.9,72.5,M,46.5,M,,*41
$GNRMC,110555.00,A,5215.790221,N,00802.497429,E,3.2,265.0,020423,,,A,V*3B
$GNGGA,110555.00,5215.790221,N,00802.497429,E,1,05,3.9,72.5,M,46.5,M,,*4C
$GNRMC,110556.00,A,5215.790071,N,00802.496256,E,3.2,274.2,020423,,,A,V*32
$GNGGA,110556.00,5215.790071,N,00802.496256,E,1,05,3.9,72.5,M,46.5,M,,*47
$GNRMC,110557.00,A,5215.789957,N,00802.494983,E,3.1,259.6,020423,,,A,V*3F
$GNGGA,110557.00,5215.789957,N,00802.494983,E,1,05,3.9,72.5,M,46.5,M,,*42
$GNRMC,110558.00,A,5215.789742,N,00802.493631,E,3.1,221.8,020423,,,A,V*3A
$GNGGA,110558.00,5215.789742,N,00802.493631,E,1,05,3.9,72.5,M,46.5,M,,*46
$GNRMC,110559.00,A,5215.789663,N,00802.492544,E,2.9,267.6,020423,,,A,V*3C
$GNGGA,110559.00,5215.789663,N,00802.492544,E,1,05,3.9,72.5,M,46.5,M,,*45
$GNRMC,110600.00,A,5215.789592,N,00802.491579,E,2.8,273.6,020423,,,A,V*37
$GNGGA,110600.00,5215.789592,N,00802.491579,E,1,05,3.9,71.5,M,46.5,M,,*49
$GNRMC,110601.00,A,5215.789821,N,00802.490520,E,2.8,256.5,020423,,,A,V*3A
$GNGGA,110601.00,5215.789821,N,00802.490520,E,1,05,3.9,70.5,M,46.5,M,,*41
$GNRMC,110602.00,A,5215.789928,N,00802.489297,E,2.7,237.2,020423,,,A,V*3D
$GNGGA,110602.00,5215.789928,N,00802.489297,E,1,05,3.9,70.5,M,46.5,M,,*49
$GNRMC,110603.00,A,5215.790243,N,00802.488346,E,2.3,237.2,020423,,,A,V*3A
$GNGGA,110603.00,5215.790243,N,00802.488346,E,1,05,3.9,69.5,M,46.5,M,,*42
$GNRMC,110604.00,A,5215.790250,N,00802.487530,E,1.7,243.0,020423,,,A,V*31
$GNGGA,110604.00,5215.790250,N,00802.487530,E,1,05,3.9,68.5,M,46.5,M,,*4E
$GNRMC,110605.00,A,5215.790143,N,00802.486779,E,1.9,248.7,020423,,,A,V*3D
$GNGGA,110605.00,5215.790143,N,00802.486779,E,1,05,3.9,68.5,M,46.5,M,,*40
$GNRMC,110606.00,A,5215.790085,N,00802.485649,E,2.1,274.1,020423,,,A,V*36
$GNGGA,110606.00,5215.790085,N,00802.485649,E,1,05,3.9,69.5,M,46.5,M,,*48
$GNRMC,110607.00,A,5215.790200,N,00802.484483,E,2.2,269.2,020423,,,A,V*31
$GNGGA,110607.00,5215.790200,N,00802.484483,E,1,05,3.9,69.5,M,46.5,M,,*43
$GNRMC,110608.00,A,5215.790386,N,00802.483417,E,2.3,253.0,020423,,,A,V*31
$GNGGA,110608.00,5215.790386,N,00802.483417,E,1,05,3.9,70.5,M,46.5,M,,*41
$GNRMC,110609.00,A,5215.790107,N,00802.482244,E,2.4,228.0,020423,,,A,V*31
$GNGGA,110609.00,5215.790107,N,00802.482244,E,1,05,3.9,69.5,M,46.5,M,,*42
$GNRMC,110610.00,A,5215.789728,N,00802.481107,E,2.5,240.3,020423,,,A,V*31
$GNGGA,110610.00,5215.789728,N,00802.481107,E,1,05,3.9,68.5,M,46.5,M,,*4F
$GNRMC,110611.00,A,5215.789470,N,00802.479727,E,2.6,273.3,020423,,,A,V*3E
$GNGGA,110611.00,5215.789470,N,00802.479727,E,1,05,3.9,68.5,M,46.5,M,,*43
$GNRMC,110612.00,A,5215.789391,N,00802.478361,E,2.6,262.7,020423,,,A,V*36
$GNGGA,110612.00,5215.789391,N,00802.478361,E,1,05,3.9,67.5,M,46.5,M,,*40
$GNRMC,110613.00,A,5215.789170,N,00802.477009,E,2.6,251.0,020423,,,A,V*3F
$GNGGA,110613.00,5215.789170,N,00802.477009,E,1,05,3.9,68.5,M,46.5,M,,*41
$GNRMC,110614.00,A,5215.788691,N,00802.475886,E,2.6,234.8,020423,,,A,V*37
$GNGGA,110614.00,5215.788691,N,00802.475886,E,1,05,3.9,68.5,M,46.5,M,,*42
$GNRMC,110615.00,A,5215.788276,N,00802.474892,E,2.7,235.5,020423,,,A,V*32
$GNGGA,110615.00,5215.788276,N,00802.474892,E,1,05,3.9,68.5,M,46.5,M,,*4A
$GNRMC,110616.00,A,5215.787861,N,00802.473661,E,2.8,237.5,020423,,,A,V*3A
$GNGGA,110616.00,5215.787861,N,00802.473661,E,1,05,3.9,67.5,M,46.5,M,,*40
$GNRMC,110617.00,A,5215.787568,N,00802.472374,E,2.8,239.3,020423,,,A,V*37
$GNGGA,110617.00,5215.787568,N,00802.472374,E,1,05,3.9,68.5,M,46.5,M,,*4A
$GNRMC,110618.00,A,5215.787053,N,00802.470865,E,3.0,234.1,020423,,,A,V*3A
$GNGGA,110618.00,5215.787053,N,00802.470865,E,1,05,3.9,67.5,M,46.5,M,,*4E
$GNRMC,110619.00,A,5215.786623,N,00802.469577,E,3.0,237.6,020423,,,A,V*39
$GNGGA,110619.00,5215.786623,N,00802.469577,E,1,05,3.9,67.5,M,46.5,M,,*49
$GNRMC,110620.00,A,5215.785980,N,00802.468197,E,3.1,215.8,020423,,,A,V*32
$GNGGA,110620.00,5215.785980,N,00802.468197,E,1,05,3.9,67.5,M,46.5,M,,*4D
$GNRMC,110621.00,A,5215.785586,N,00802.466924,E,3.1,224.4,020423,,,A,V*39
$GNGGA,110621.00,5215.785586,N,00802.466924,E,1,05,3.9,66.5,M,46.5,M,,*49
$GNRMC,110622.00,A,5215.785214,N,00802.465493,E,3.1,248.4,020423,,,A,V*3E